City_ID,City,Country,Max Temp,Current Description,Lat,Lng,Hotel Name
4,Atar,MR,72.59,clear sky,20.5169,-13.0499,Oumou Elghoura
7,Cape+Town,ZA,72.0,clear sky,-33.9258,18.4232,"Radisson Blu Hotel Waterfront, Cape Town"
8,Nouadhibou,MR,75.2,broken clouds,20.930999999999997,-17.0347,El Medina
11,Rocha,UY,75.47,moderate rain,-34.4833,-54.3333,Beleza Pura B&B
12,Saint-Philippe,RE,78.8,clear sky,-21.3585,55.7679,"Chambres d'hôte ""La Trinité"""
13,Ouricuri,BR,78.62,overcast clouds,-7.8825,-40.0817,Sertão Pousada
18,Mana,GF,78.8,overcast clouds,5.6592,-53.7767,LE SAMANA
23,Sao+Filipe,CV,75.79,overcast clouds,14.8961,-24.4956,Tortuga B&B
27,Namibe,AO,73.72,broken clouds,-15.1961,12.1522,Hotel Chik Chik Namibe
28,Dingle,PH,71.47,overcast clouds,10.9995,122.6711,SEGAYA PROPERTY
29,Chuy,UY,79.83,moderate rain,-33.6971,-53.4616,Nuevo Hotel Plaza
30,Maragogi,BR,80.22,overcast clouds,-9.0122,-35.2225,Salinas do Maragogi All Inclusive Resort
31,Arraial+Do+Cabo,BR,86.0,few clouds,-22.9661,-42.0278,Pousada Porto Praia
33,Mahebourg,MU,78.8,light rain,-20.4081,57.7,Shandrani Beachcomber Resort & Spa
40,Tucupita,VE,79.21,scattered clouds,9.0622,-62.051,Hotel Tucupita Su​ite C.A.
41,Geraldton,AU,84.2,clear sky,-28.7667,114.6,Broadwater Mariner Resort
44,Mahajanga,MG,77.0,moderate rain,-15.7167,46.3167,Restaurant Greedy Coco Lodge Majunga
46,East+London,ZA,71.37,clear sky,-33.0153,27.9116,Tu Casa
47,Revadanda,IN,73.4,smoke,18.5503,72.9278,OYO 22032 P P Motel
49,Georgetown,MY,80.01,few clouds,5.4112,100.3354,Cititel Penang
51,Cruz+Das+Almas,BR,81.86,light rain,-12.67,-39.1019,Stúdios Stifler
52,Male,MV,82.4,broken clouds,4.1748,73.5089,Hotel Octave Maldives
54,Naranjal,EC,84.2,light rain,-2.6667,-79.6167,Media Naranja
55,Neuquen,AR,71.6,broken clouds,-38.9516,-68.0591,Hotel del Comahue
57,Mitsamiouli,KM,82.38,overcast clouds,-11.3847,43.2844,Foyer ADM
58,Matara,LK,76.46,overcast clouds,5.9485,80.5353,Amaloh Boutique Resort
60,Camapua,BR,86.0,light rain,-19.5314,-54.0439,Comercial Estrela
62,Dedougou,BF,80.04,clear sky,12.4667,-3.4667,Hôtel Bon Séjour
63,Viedma,AR,73.0,scattered clouds,-40.8135,-62.9967,Hotel Cristal
64,Kalmunai,LK,76.84,light rain,7.4167,81.8167,VS Villa
69,Cayenne,GF,80.6,broken clouds,4.9333,-52.3333,Hôtel Le Dronmi
72,Bandarbeyla,SO,74.05,clear sky,9.4942,50.8122,JABIR HOTEL
74,Bathsheba,BB,82.4,few clouds,13.2167,-59.5167,Atlantis Hotel
78,Aquidauana,BR,88.14,broken clouds,-20.4711,-55.7872,HOTEL ARARAS
79,Cap+Malheureux,MU,78.01,light rain,-19.9842,57.6142,Pereybere Hotel & Spa
85,Abong+Mbang,CM,74.3,overcast clouds,3.9833,13.1833,Auberge Angle Sur
103,Sao+Joao+Da+Barra,BR,86.0,clear sky,-21.6403,-41.0511,Pousada Porto De Canoas
108,Santos+Dumont,BR,82.4,few clouds,-21.4567,-43.5525,Hotel - Leiteria São Luiz
110,Estelle,US,70.0,broken clouds,29.8458,-90.1067,Ohio
114,Danielskuil,ZA,73.2,clear sky,-28.1887,23.5395,Botha'Sig Gastehuis
116,Olmos,PE,87.58,broken clouds,-5.9847,-79.7453,Hospedaje El Olmo
118,Barao+De+Melgaco,BR,89.6,scattered clouds,-16.1944,-55.9675,Tuiuiu Pantanal Hotel
119,Conceicao+Do+Araguaia,BR,81.84,heavy intensity rain,-8.2578,-49.2647,Tarumã Tropical Hotel
120,Kaura+Namoda,NG,73.83,clear sky,12.5898,6.5779,Moonlight Hotel
127,Sao+Jose+Da+Coroa+Grande,BR,80.24,overcast clouds,-8.8978,-35.1478,Crôa Mares Hotel
131,Souillac,MU,78.8,broken clouds,-20.5167,57.5167,Shanti Maurice Resort & Spa
135,Coro,VE,82.38,clear sky,11.4045,-69.6734,Federal
138,Lindi,TZ,76.19,broken clouds,-10.0,39.7167,Lindi paradise house
148,Mongu,ZM,72.19,light rain,-15.2484,23.1274,Country Lodge Mongu
152,Candolim,IN,75.2,haze,15.5181,73.7626,Resort Terra Paraiso
157,Manono,CD,72.25,light rain,-7.3,27.4167,Hotel hewa bora
159,Bull+Savanna,JM,79.48,broken clouds,17.8868,-77.5902,Big Red's
160,Totness,SR,78.57,overcast clouds,5.8833,-56.3167,STAATS LOGEERGEBOUW TOTNESS
168,Crixas,BR,86.38,clear sky,-14.5489,-49.9692,RISO HOTEL
169,Caravelas,BR,81.21,clear sky,-17.7125,-39.2481,Pousada dos Navegantes
171,Isla+Mujeres,MX,78.8,broken clouds,21.2311,-86.73100000000001,Hotel La Joya Isla Mujeres
174,Nisia+Floresta,BR,82.4,few clouds,-6.0911,-35.2086,Rancho Crepusculo
177,Kudahuvadhoo,MV,81.18,broken clouds,2.6708,72.8944,Niyama Private Islands Maldives
179,Fomboni,KM,83.73,overcast clouds,-12.28,43.7425,Auberge les abou
180,Marau,BR,71.96,overcast clouds,-28.4492,-52.2,Hotel Pousada Tordilho Negro
183,Mollendo,PE,73.81,broken clouds,-17.0231,-72.0147,Hostal La Casa de Melgar
186,Mumford,GH,80.33,clear sky,5.2618,-0.759,Spanish Villa
187,Dogondoutchi,NE,76.95,clear sky,13.6393,4.0287,Hôtel Alheri Maison Alheri
194,Tabou,CI,78.82,scattered clouds,4.423,-7.3528,hotêl doufoulougou
197,Coihueco,CL,73.4,broken clouds,-36.6167,-71.8333,Frutillares Coihueco
199,Kilindoni,TZ,81.81,scattered clouds,-7.9139,39.6668,Bustani B&B
200,Ugoofaaru,MV,81.1,scattered clouds,5.6667,73.0,Ungoofaaru Inn
201,Manta,EC,77.0,light rain,-0.95,-80.7333,Balandra Hotel
203,Kattivakkam,IN,75.2,haze,13.2167,80.3167,Raj's villa
205,Bambous+Virieux,MU,78.8,light rain,-20.3428,57.7575,Casa Tia Villa
209,Nagua,DO,78.8,broken clouds,19.3832,-69.8474,Hotel Cambri
212,Hithadhoo,MV,82.31,scattered clouds,-0.6,73.0833,Scoop Guest House
214,Bubaque,GW,79.75,clear sky,11.2833,-15.8333,"Casa Dora, Bubaque"
216,Port-Gentil,GA,82.4,moderate rain,-0.7193,8.7815,Fengshui Residence
218,Bissau,GW,82.4,clear sky,11.8636,-15.5977,Pensão Creola
220,Dhidhdhoo,MV,81.93,clear sky,6.8833,73.1,Dhidhoo beach
224,Belmopan,BZ,77.0,overcast clouds,17.25,-88.7667,Villa San Juan
226,Takoradi,GH,80.51,broken clouds,4.8845,-1.7554,Raybow International Hotel
227,Trincomalee,LK,78.91,broken clouds,8.5711,81.2335,Welcombe Hotel
232,Kathu,TH,75.2,few clouds,7.9178,98.3332,Novotel Phuket Resort
233,Sinnamary,GF,79.52,moderate rain,5.3833,-52.95,ALETHEIA Appartement Sinnamary
239,Wajir,KE,84.72,clear sky,1.7471,40.0573,Al-bustan Hotel And Restaurant.
244,Niamey,NE,80.6,dust,13.5137,2.1098,Soluxe Hotel Niamey
246,Coihaique,CL,73.4,few clouds,-45.5752,-72.0662,Diego De Almagro Coyhaique
248,Cidreira,BR,80.29,broken clouds,-30.1811,-50.2056,Hotel Castelo
250,The+Valley,AI,80.6,scattered clouds,18.217,-63.0578,CeBlue Villas & Beach Resort
254,Quatre+Cocos,MU,78.8,light rain,-20.2078,57.7625,Emeraude Beach Attitude Hotel
255,Carutapera,BR,83.28,overcast clouds,-1.195,-46.02,Lidera
258,Mulchen,CL,71.6,broken clouds,-37.7167,-72.2333,Hotel Los Maitenes de Villalón
259,Kaduqli,SD,73.6,clear sky,11.0167,29.7167,فندق الله جابو
262,Cabinda,AO,80.02,light rain,-5.55,12.2,"Hotel Executivo , 3 estrelas"
264,Mwanza,TZ,73.85,clear sky,-2.5167,32.9,Gold Crest Hotel
267,Kigoma,TZ,74.52,overcast clouds,-4.8769,29.6267,Kigoma Hilltop Hotel
269,Barreirinha,BR,88.68,clear sky,-2.7933,-57.07,Hotel e Restaurante Tupana Iwato
272,Bonthe,SL,80.04,broken clouds,7.5264,-12.505,Bonthe Holiday Village
273,Saint-Joseph,RE,78.8,clear sky,-21.3667,55.6167,"""Plantation Bed and Breakfast"
274,Olinda,BR,80.6,scattered clouds,-8.0089,-34.8553,Flat Quatro Rodas Olinda
287,Antofagasta,CL,75.0,few clouds,-23.65,-70.4,Holiday Inn Express Antofagasta
293,Mattru,SL,80.56,overcast clouds,7.6244,-11.8332,"Mondkor Town, Bagbo Chiefdom, Bo District"
295,Pisco,PE,80.6,clear sky,-13.7,-76.2167,Hotel San Isidro Oficial
296,Omboue,GA,77.85,light rain,-1.5746,9.2618,Hotel Olako
300,Grand-Santi,GF,80.13,overcast clouds,4.25,-54.3833,Hotel La Villa Couacou
303,Chiredzi,ZW,74.79,broken clouds,-21.05,31.6667,The Nesbitt Arms
304,Sao+Felix+Do+Xingu,BR,81.19,heavy intensity rain,-6.6447,-51.995,Rio Xingu Camping
305,Praia,CV,73.4,clear sky,14.9215,-23.5087,LT Aparthotel
308,Tapes,BR,81.23,overcast clouds,-30.6733,-51.3958,Cabanas Camping Union
309,Vila+Velha,BR,82.4,clear sky,-20.3297,-40.2925,Hotel Vitória Palace
312,Biltine,TD,73.42,clear sky,14.5333,20.9167,Hôtel Trois Étoiles de Biltine
317,Malindi,KE,77.54,clear sky,-3.2175,40.1191,African House Resort
326,Tshela,CD,73.04,overcast clouds,-4.9833,12.9333,Hotel Mirador
327,Nueva+Guinea,NI,82.26,scattered clouds,11.6876,-84.4562,Posadita La Reyna
331,Sal+Rei,CV,75.2,clear sky,16.1833,-22.9167,Marine Club Beach Resort
332,San+Cristobal,VE,84.2,scattered clouds,7.7669,-72.225,Pirineos
333,Paita,PE,87.8,broken clouds,-5.0892,-81.1144,Hotel Náutico de Paita
336,Bengkulu,ID,75.34,overcast clouds,-3.8004,102.2655,Grage Hotel Bengkulu
338,Sao+Miguel+Do+Araguaia,BR,86.0,scattered clouds,-13.275,-50.1628,Hotel Executivo Palace
342,Ikorodu,NG,71.6,haze,6.6191,3.5041,Royal Kaft Hotel & Suites
344,El+Tocuyo,VE,85.32,clear sky,9.7873,-69.7937,HOTEL BOUTIQUE SANTO DOMINGO
345,San+Andres,CO,84.2,scattered clouds,12.5847,-81.7006,Hotel Arena Blanca
349,Sainte-Marie,RE,80.6,scattered clouds,-20.8968,55.5496,Les pailles en queue de Sainte Marie
352,Salinopolis,BR,79.99,overcast clouds,-0.6136,-47.3561,Salinas Park Resort Maçarico AP101
354,Clearwater,US,72.0,overcast clouds,27.9659,-82.8001,Shephard's Beach Resort
357,Imbituba,BR,82.4,few clouds,-28.24,-48.6703,Praia Hotel Imbituba
360,Maldonado,UY,71.01,heavy intensity rain,-34.6667,-54.9167,La Cimarrona
365,Petit+Goave,HT,86.0,scattered clouds,18.4314,-72.8669,Imperial Suite International
369,Gaoual,GN,82.96,clear sky,11.75,-13.2,Hotel koliba
370,Saint-Georges,GD,84.2,few clouds,12.0564,-61.7485,Siesta Hotel
375,Manicore,BR,80.6,clear sky,-5.8092,-61.3003,Hotel Durval
378,Axim,GH,80.2,light rain,4.8699,-2.2405,AXIM BEACH RESORT AND SPA
381,San+Carlos+De+Bariloche,AR,77.0,broken clouds,-41.1456,-71.3082,Hotel Patagonia
391,Hambantota,LK,77.25,overcast clouds,6.1241,81.1185,Bungalow 63
392,Curaca,BR,82.56,overcast clouds,-8.9903,-39.9094,Curaca
393,Bentiu,SS,76.44,clear sky,9.2333,29.8333,Mandela hôtel
395,Rosa+Zarate,EC,81.79,moderate rain,0.3333,-79.4667,Piscinas y Recepciones Hecalash
398,Pemba,MZ,82.0,broken clouds,-12.974,40.5178,Guesthouse Samotina
400,Richards+Bay,ZA,74.5,overcast clouds,-28.783,32.0377,BON Hotel Waterfront Richards Bay
404,Cabedelo,BR,82.4,few clouds,-6.9811,-34.8339,Hotel Pigalle
405,Cangucu,BR,80.6,overcast clouds,-31.395,-52.6756,Casa Paulista
407,Carnarvon,AU,80.6,clear sky,-24.8667,113.6333,Hospitality Carnarvon
413,Sao+Manuel,BR,87.8,heavy intensity rain,-22.7311,-48.5706,Zeminian & Zeminian Ltda
415,Carauari,BR,88.25,broken clouds,-4.8828,-66.8958,Hotel Fellip
417,Ponnani,IN,78.8,haze,10.767000000000001,75.9252,Rouba Residency
418,Djenne,ML,78.24,clear sky,13.9061,-4.5533,Hôtel Chez Baba
420,Pauini,BR,87.42,heavy intensity rain,-7.7136,-66.9764,Casa do Kiwliks
422,Marawi,PH,75.99,overcast clouds,7.9986,124.2928,Derogongan Residence
423,Angoche,MZ,80.15,light rain,-16.2325,39.9086,Guest House HESADA
428,Manga,BF,80.15,clear sky,11.6636,-1.0731,Auberge du 11 décembre de la cité CNSS à Manga
429,Iralaya,HN,82.4,few clouds,15.0,-83.2333,Iglesia morava renovada
437,Tambura,SS,73.72,clear sky,5.6,27.4667,Rikito Lodge
438,Tsabong,BW,82.24,few clouds,-26.0217,22.401,Springbok Motel
439,Ilo,PE,73.44,overcast clouds,-17.6394,-71.3375,Torreblanca Hotel
443,Cururupu,BR,83.43,broken clouds,-1.8283,-44.8683,Pousada Través'cia
445,Tamandare,BR,80.13,overcast clouds,-8.7597,-35.1047,Pousada 100 Passos
447,Sambava,MG,78.21,scattered clouds,-14.2667,50.1667,Melrose
449,Prado,BR,80.06,clear sky,-17.3411,-39.2208,INN CORNER RIVER - PRADO - BAHIA - HOUSING AND HOTEL
459,Karwar,IN,74.7,clear sky,14.8,74.1333,Netalco Connects
465,Forecariah,GN,76.48,clear sky,9.4306,-13.0881,"Motel "" La Maison Blanche"""
466,Dubai,AE,71.01,clear sky,25.2582,55.3047,"Radisson Blu Hotel, Dubai Deira Creek"
467,Barra+Do+Bugres,BR,88.09,broken clouds,-15.0725,-57.1811,Hotel 4AM Petrofurt
468,Japura,ID,72.03,overcast clouds,-0.3167,102.35,Rumah mbah Jamah
470,Eyl,SO,72.81,few clouds,7.9803,49.8164,Amiin Hotel
479,San+Pedro,PH,72.0,few clouds,14.35,121.0167,OYO 412 Viewfort Venue
481,Barranca,PE,76.44,broken clouds,-10.75,-77.7667,El Olivar Hospedaje
484,Kariba,ZW,72.81,light rain,-16.5167,28.8,Caribbea Bay Hotel
485,Contamana,PE,82.04,overcast clouds,-7.3333,-75.0167,Shiringal Touristic Park
487,Parrita,CR,78.8,few clouds,9.5201,-84.3225,Beso del Viento
491,Urucara,BR,85.44,few clouds,-2.5364,-57.76,Hotel japa
492,Tela,HN,84.2,broken clouds,15.7833,-87.45,Hotel & Restaurante Cesar Mariscos
493,Kasangulu,CD,75.2,scattered clouds,-4.5911,15.1708,Hôtel le Relais
495,Tete,MZ,80.01,scattered clouds,-16.1564,33.5867,Zambeze Paraíso Misterioso
496,Touros,BR,82.4,few clouds,-5.1989,-35.4608,INN NEW HORIZON
499,Mango,US,73.99,scattered clouds,27.9797,-82.3065,Hilton Garden Inn Tampa East/Brandon
500,Abeokuta,NG,71.6,haze,7.15,3.35,Park Inn by Radisson Abeokuta
505,Impfondo,CG,75.51,overcast clouds,1.6381,18.0667,Préfecture de la Likouala
507,Cozumel,MX,78.8,broken clouds,20.5083,-86.9458,Cozumel Palace® All Inclusive Resort
511,Oistins,BB,82.4,few clouds,13.0667,-59.5333,Butterfly Beach Hotel
513,Puerto+Ayora,EC,86.0,clear sky,-0.7393,-90.3518,Castillo Galapagos
515,Nouakchott,MR,78.8,scattered clouds,18.0858,-15.9785,HOTEL IMAN فندق إيمان
516,Wamba,NG,78.67,clear sky,8.9333,8.6,Roma Zee Guest House Annex
517,Bandundu,CD,73.6,overcast clouds,-3.3167,17.3667,Coja Color
520,Sabya,SA,77.0,few clouds,17.1495,42.6254,Aseel Hotel Apartment
521,Pitimbu,BR,82.4,few clouds,-7.4706,-34.8086,Reserva do Abiaí
523,Mineiros,BR,79.11,broken clouds,-17.5694,-52.5511,Pilões Palace Hotel
527,Banda+Aceh,ID,76.66,overcast clouds,5.5577,95.3222,OYO 884 Rumoh PMI Hotel
533,Salvador,SV,87.8,scattered clouds,13.8333,-88.9167,Chico's Ranch
534,Buritis,BR,82.27,overcast clouds,-15.6178,-46.4233,Hotel Rainha do Vale
541,Galle,LK,78.03,overcast clouds,6.0367,80.217,Amangalla
544,Inongo,CD,75.43,overcast clouds,-1.95,18.2667,Hotel Du Lac
552,San+Antonio,US,73.4,few clouds,29.4241,-98.4936,Drury Plaza Hotel San Antonio Riverwalk
556,Morant+Bay,JM,87.8,few clouds,17.8815,-76.4093,Whispering Bamboo Cove Resort
557,Bani,DO,81.0,scattered clouds,18.2833,-70.3333,Hospedaje Henriquez
560,Beira,MZ,82.4,few clouds,-19.8436,34.8389,Beira Terrace Hotel
561,Rio+Verde+De+Mato+Grosso,BR,84.56,overcast clouds,-18.9181,-54.8442,Hotel Valência
562,Catumbela,AO,76.84,broken clouds,-12.4314,13.5472,Hotel Do Kamgamba
564,Road+Town,VG,75.2,scattered clouds,18.4167,-64.6167,"ZINGARA 76ft Catamaran, full crew-all included"
567,Rosita,NI,85.62,clear sky,13.9268,-84.4032,Hospedaje Osejo
569,Neira,CO,86.0,scattered clouds,5.1665,-75.52,Hotel Neira
570,Chimore,BO,78.13,overcast clouds,-16.9833,-65.1333,Bichito
572,Vilhena,BR,77.0,broken clouds,-12.7406,-60.1458,Hotel Mirage
574,Ballina,AU,73.4,overcast clouds,-28.8667,153.5667,Ramada Hotel & Suites by Wyndham Ballina Byron
575,Pepel,SL,78.48,clear sky,8.5817,-13.0628,Tasso Ecotourism Project
578,Sao+Luiz+Gonzaga,BR,78.51,overcast clouds,-28.4083,-54.9608,Xerife Hotel
580,Hobe+Sound,US,70.0,broken clouds,27.0595,-80.1364,Floridays RV Park
581,Bandrele,YT,78.8,few clouds,-12.9067,45.1914,Les Baobabs
583,Tahoua,NE,72.12,broken clouds,14.8888,5.2692,Bungalows Guesthouse
584,Itarema,BR,83.55,broken clouds,-2.9248,-39.9167,"Sea Lounge! Bar, Club & Restaurant"
586,Douentza,ML,72.23,clear sky,14.9951,-2.9517,Ogomono Doumbo
587,Kavaratti,IN,80.94,scattered clouds,10.5669,72.642,Hotels in Lakshadweep Islands
591,Parambu,BR,77.83,overcast clouds,-6.2111,-40.6944,Hotel pousada santo onofre
596,Guantanamo,CU,82.4,scattered clouds,20.1444,-75.2092,Hotel Marti
597,Avanigadda,IN,70.39,overcast clouds,16.0215,80.9181,AP Camping
598,Huarmey,PE,77.4,broken clouds,-10.0681,-78.1522,Hotel Miramar
599,Sao+Lourenco+Do+Sul,BR,80.6,moderate rain,-31.3653,-51.9783,Hotel Pousada Verde Água
600,Loubomo,CG,72.5,light rain,-4.1997,12.6739,La Dolisienne
601,Maceio,BR,80.6,broken clouds,-9.6658,-35.7353,Hotel Ponta Verde Maceió
604,Stephenville,US,73.4,clear sky,32.2207,-98.2023,Holiday Inn Express & Suites Stephenville
607,Dennery,LC,84.2,few clouds,13.8996,-60.8879,The Fox Grove Inn
608,Floriano,BR,81.25,overcast clouds,-6.7669,-43.0225,Hotel Maktub
614,Harper,LR,78.57,scattered clouds,4.375,-7.7169,Screensaver
617,Alvorada,BR,86.56,overcast clouds,-12.48,-49.1247,Cristal Plaza Hotel
622,Ibatiba,BR,76.64,few clouds,-20.2339,-41.5106,Hotel Nacional Ibatiba
630,Ambanja,MG,75.72,light rain,-13.6833,48.45,Hotel Salama and Fast Food
632,Rio+Grande,BR,80.6,overcast clouds,-32.035,-52.0986,Hotel Atlântico Rio Grande
636,Warri,NG,81.25,clear sky,5.5167,5.75,BON Hotel Delta
637,Boffa,GN,76.01,clear sky,10.1667,-14.0333,Hôtel Niara Belly
642,Tarata,BO,75.0,clear sky,-17.6167,-66.0167,Alojamiento IV Centenario
649,Farafangana,MG,79.43,light rain,-22.8167,47.8333,Miarina
654,Yumbe,UG,79.05,broken clouds,3.4651,31.2469,Terrain Hotel
659,Vallenar,CL,86.81,clear sky,-28.5708,-70.7581,Humacao Bed & Breakfast
661,Sharjah,AE,71.01,clear sky,25.3573,55.4033,Swiss Belhotel Sharjah
664,Altamira,BR,80.6,scattered clouds,-3.2033,-52.2064,Requinte Hotel
665,Alpinopolis,BR,82.49,broken clouds,-20.8636,-46.3881,Hotel Ventania
667,Mozarlandia,BR,87.91,overcast clouds,-14.7447,-50.5706,Hotel Santa Mônica
678,Yambio,SS,76.08,clear sky,4.5721,28.3955,Naivasha Hotel
679,Faranah,GN,79.88,clear sky,10.0404,-10.7434,Chez mon oncle
681,Mahibadhoo,MV,80.87,few clouds,3.7833,72.9667,Omadhoo Inn
682,Sumbe,AO,76.75,scattered clouds,-11.2061,13.8437,Hotel Ritz Sumbe
683,Lobito,AO,77.25,broken clouds,-12.3481,13.5456,Casa Rosa Hotel Residence
684,Cotonou,BJ,84.2,few clouds,6.3654,2.4183,Novotel Cotonou Orisha
685,Guane,CU,74.79,few clouds,22.2025,-84.0875,base de Campismo LosPortales de Guane
687,Meulaboh,ID,75.49,broken clouds,4.1363,96.1285,Kost Pria
692,Belmonte,BR,82.4,broken clouds,-15.8631,-38.8828,Pousada Monte Carmelo O Pão
699,Nkhotakota,MW,75.99,light rain,-12.9274,34.2961,Sitima Inn
701,Minas,UY,71.01,moderate rain,-34.3759,-55.2377,Hotel Minas
710,Corrientes,AR,75.2,broken clouds,-27.4806,-58.8341,Gran Hotel Guaraní
719,Diamantino,BR,86.85,broken clouds,-14.4086,-56.4461,Hotel Delta
720,Chimbote,PE,76.82,broken clouds,-9.0853,-78.5783,Hotel Briliá
